[
  {
    "id": "evt-001",
    "title": "Pop-up: Drop-off & AVT",
    "type": "Pop-up",
    "start": "2025-10-18T09:00:00-04:00",
    "end": "2025-10-18T12:00:00-04:00",
    "venue": "City Market",
    "address": "200 W Water St",
    "city": "Charlottesville",
    "state": "VA",
    "lat": 38.0293,
    "lng": -78.4767,
    "registration_url": "https://forms.gle/example",
    "description": "Drop off your food scraps and pick up finished vermicast or AVT (Actively Aerated Vermicompost Tea). Biofiltered node with â‰¤24h dwell time."
  },
  {
    "id": "evt-002",
    "title": "Workshop: DIY CFT Basics",
    "type": "Workshop",
    "start": "2025-11-06T17:30:00-05:00",
    "end": "2025-11-06T19:00:00-05:00",
    "venue": "IX Art Park",
    "address": "522 2nd St SE",
    "city": "Charlottesville",
    "state": "VA",
    "lat": 38.0249,
    "lng": -78.4794,
    "registration_url": "https://forms.gle/example",
    "description": "Learn to build your own Continuous Flow Through (CFT) vermireactor. Hands-on session covering design, operation, and troubleshooting."
  },
  {
    "id": "evt-003",
    "title": "Volunteer Shift: Node Setup & Bulking",
    "type": "Volunteer Shift",
    "start": "2025-12-07T10:00:00-05:00",
    "end": "2025-12-07T12:30:00-05:00",
    "venue": "Meade Park",
    "address": "1000 Meade Ave",
    "city": "Charlottesville",
    "state": "VA",
    "lat": 38.0412,
    "lng": -78.5045,
    "registration_url": "https://forms.gle/example",
    "description": "Help us set up a new collection node and prepare bulking materials. All skill levels welcome."
  },
  {
    "id": "evt-004",
    "title": "Spring Pop-up: Garden Kickoff",
    "type": "Pop-up",
    "start": "2026-03-21T10:00:00-04:00",
    "end": "2026-03-21T13:00:00-04:00",
    "venue": "Pen Park",
    "address": "1300 Pen Park Rd",
    "city": "Charlottesville",
    "state": "VA",
    "lat": 38.0617,
    "lng": -78.4586,
    "registration_url": "https://forms.gle/example",
    "description": "Spring garden kickoff! Drop off organics, pick up vermicast for your garden beds, and learn about spring planting."
  },
  {
    "id": "evt-005",
    "title": "Workshop: QA/QC for AVT",
    "type": "Workshop",
    "start": "2026-04-04T14:00:00-04:00",
    "end": "2026-04-04T16:00:00-04:00",
    "venue": "UVA Sustainability Hub",
    "address": "1784 University Cir",
    "city": "Charlottesville",
    "state": "VA",
    "lat": 38.0336,
    "lng": -78.5080,
    "registration_url": "https://forms.gle/example",
    "description": "Deep dive into quality assurance and quality control protocols for AVT production. Learn about maturity testing, pH/EC monitoring, and batch documentation."
  }
]
